ARC_STREET,CENTER,ADDRESS,CITY,STATE,ZIPCODE,TYPE,PHONE,WEB,SITE,LAT,LNG
2101 West Cecil B Moore Avenue,King Older Adult Center,2101 West Cecil B Moore Avenue,Philadelphia,PA,19121.0,Center,215-685-2715,http://www.phila.gov/ParksandRecreation/placestogo/facilities/Pages/OlderAdultCenters.aspx,Martin Luther King Recreation Center,39.9806580526,-75.1704279729
3200 N 5TH ST,Mann Older Adult Center,3201 North 5th st,Philadelphia,PA,19140.0,Center,215-685-9844,http://www.phila.gov/ParksandRecreation/placestogo/facilities/Pages/OlderAdultCenters.aspx,Rivera Recreation Center,40.0004356947,-75.1380389985
7210 Ogontz Ave,West Oak Lane Senior Center,7210 Ogontz Ave,Philadelphia,PA,19138.0,Center,215-685-3515,http://www.phila.gov/ParksandRecreation/placestogo/facilities/Pages/OlderAdultCenters.aspx,West Oak Lane Senior Center,40.0643431965,-75.1542392106
1251 E SEDGLEY AVE,Juniata Park Older Adult Center,1251 Sedgley Ave,Philadelphia,PA,19134.0,Satellite,215-685-1490,http://www.phila.gov/ParksandRecreation/placestogo/facilities/Pages/OlderAdultCenters.aspx,Juniata Park Older Adult Center,40.0036265714,-75.1044018091
7522 CASTOR AVE,Northeast Older Adult Center,7522 Castor Ave,Philadelphia,PA,19152.0,Satellite,215-685-0576,http://www.phila.gov/ParksandRecreation/placestogo/facilities/Pages/OlderAdultCenters.aspx,Northeast Older Adult Center,40.0551687749,-75.0628860583
1430 E PASSYUNK AVE,South Philadelphia Older Adult Center,1430 E Passyunk Ave,Philadelphia,PA,19147.0,Center,215-685-1697,http://www.phila.gov/ParksandRecreation/placestogo/facilities/Pages/OlderAdultCenters.aspx,South Philadelphia Older Adult Center,39.9314372707,-75.1622729745
