{"type":"FeatureCollection","features":[{"geometry": {"type": "Point", "coordinates": [-75.20936698164887, 39.87553684271316]}, "type": "Feature", "id": 0, "properties": {"NAME": "Fort Mifflin", "DOCK": "Y", "NOTES": "Not directly on PPR Property", "FEES": "No Fee", "PARK": "N", "WATER_BODY": "Delaware River", "COUNTY": "Philadelphia", "PARK_PROP": "N", "STATE": "PA", "FISHING": "N", "PARKING": "Y", "TYPE": "Ramp", "ID": 0, "MORE_INFO": "http://www.phillyriverinfo.org/WICLibrary/Boating%20Website.pdf"}},{"geometry": {"type": "Point", "coordinates": [-75.17965608002388, 39.877248479496046]}, "type": "Feature", "id": 1, "properties": {"FISHING": "Y", "NAME": "W. Deptford Munic. Ramp", "DOCK": "N", "FEES": "No Fee", "PARK": "N", "WATER_BODY": "Delaware River", "COUNTY": "West Deptford", "PARK_PROP": "N", "STATE": "NJ", "LOCATION": "End of Center Street", "PARKING": "Y", "PHONE": "856-845-4004", "TYPE": "Paved Ramp", "ID": 0, "MORE_INFO": "http://www.jerseymarinas.com/DelawareBoatRampMap.html"}},{"geometry": {"type": "Point", "coordinates": [-75.20734647335976, 39.862701437158165]}, "type": "Feature", "id": 2, "properties": {"FISHING": "N", "NAME": "Riverwinds Point", "DOCK": "N", "FEES": "No Fee", "PARK": "N", "WATER_BODY": "Delaware River", "COUNTY": "Gloucester", "PARK_PROP": "N", "STATE": "NJ", "LOCATION": "Riverwinds Dr", "PARKING": "Y", "TYPE": "No Ramp", "ID": 0, "MORE_INFO": "http://fishandboat.com/watertrails/dela_tidal/tidal_dela_sec3.pdf"}},{"geometry": {"type": "Point", "coordinates": [-75.11274424987616, 39.95640214459449]}, "type": "Feature", "id": 3, "properties": {"NAME": "Pyne Point Marina Serv", "PHONE": "856-966-1352", "NOTES": "Fee: $10 a day", "PARK": "N", "WATER_BODY": "Delaware River", "COUNTY": "Camden", "PARK_PROP": "N", "STATE": "NJ", "LOCATION": "North 7th Street", "FEES": "Fee", "TYPE": "Paved Ramp", "ID": 0, "MORE_INFO": "http://www.jerseymarinas.com/DelawareBoatRampMap.html"}},{"geometry": {"type": "Point", "coordinates": [-75.06575742159907, 39.98107436715193]}, "type": "Feature", "id": 4, "properties": {"FISHING": "Y", "NAME": "Pennsauken/Delair Ramp", "DOCK": "N", "NOTES": "Need permit", "FEES": "Fee", "PARK": "N", "WATER_BODY": "Delaware River", "COUNTY": "Camden", "PARK_PROP": "N", "STATE": "NJ", "LOCATION": "Derousse Ave", "PARKING": "Y", "PHONE": "609-984-1401", "TYPE": "No Ramp", "ID": 0, "MORE_INFO": "http://www.jerseymarinas.com/DelawareBoatRampMap.html"}},{"geometry": {"type": "Point", "coordinates": [-75.05611475465072, 40.007395255042034]}, "type": "Feature", "id": 5, "properties": {"FISHING": "Y", "NAME": "Frankford Aresenal", "DOCK": "Y", "NOTES": "Unlimited Horsepower", "FEES": "No Fee", "PARK": "N", "WATER_BODY": "Delaware River", "COUNTY": "Philadelphia", "PARK_PROP": "N", "STATE": "PA", "LOCATION": "56 hundred block of Tacony Street", "PARKING": "Y", "PHONE": "717-626-0228", "TYPE": "Paved Ramp", "ID": 0, "MORE_INFO": "http://www.jerseymarinas.com/DelawareBoatRampMap.html"}},{"geometry": {"type": "Point", "coordinates": [-75.04199560157635, 40.009184754069786]}, "type": "Feature", "id": 6, "properties": {"FISHING": "Y", "NAME": "Palmyra Cove Nature Park", "DOCK": "N", "NOTES": "Private", "FEES": "No Fee", "PARK": "N", "WATER_BODY": "Delaware River", "COUNTY": "Burlington", "PARK_PROP": "N", "STATE": "NJ", "LOCATION": "Off of Delaware River Trail", "PARKING": "Y", "TYPE": "No Ramp", "ID": 0, "MORE_INFO": "http://www.jerseymarinas.com/ramp.htm"}},{"geometry": {"type": "Point", "coordinates": [-75.0329017330388, 40.019888083743744]}, "type": "Feature", "id": 7, "properties": {"FISHING": "Y", "NAME": "Tacony Access/Launch", "DOCK": "N", "NOTES": "Unlimited Horsepower", "FEES": "No Fee", "PARK": "N", "WATER_BODY": "Delaware River", "COUNTY": "Philadelphia", "PARK_PROP": "N", "STATE": "PA", "LOCATION": "Milnor Street & Princeton Ave", "PARKING": "Y", "PHONE": "717-626-0228", "TYPE": "Paved Ramp", "ID": 0, "MORE_INFO": "http://www.jerseymarinas.com/DelawareBoatRampMap.html"}},{"geometry": {"type": "Point", "coordinates": [-74.99200972224405, 40.04105308865538]}, "type": "Feature", "id": 8, "properties": {"FISHING": "Y", "NAME": "City of Phlia Boat Ramp", "DOCK": "Y", "NOTES": "Unlimited Horsepower", "FEES": "No Fee", "PARK": "Fish Hatchery", "WATER_BODY": "Delaware River", "COUNTY": "Philadelphia", "PARK_PROP": "Y", "STATE": "PA", "LOCATION": "Linden Ave", "PARKING": "Y", "PHONE": "215-633-7200", "TYPE": "Paved Ramp", "ID": 0, "MORE_INFO": "http://www.jerseymarinas.com/DelawareBoatRampMap.html"}},{"geometry": {"type": "Point", "coordinates": [-75.19390178279559, 39.99370807270808]}, "type": "Feature", "id": 9, "properties": {"FISHING": "Y", "NAME": "East Park Canoe House", "DOCK": "Y", "NOTES": "Mainly for Kayaks & Canoes, several locations here", "FEES": "No Fee", "PARK": "East Fairmount Park", "WATER_BODY": "Schuylkill River", "COUNTY": "Philadelphia", "PARK_PROP": "Y", "STATE": "PA", "LOCATION": "East Fairmount Park", "PARKING": "Y", "TYPE": "Paved Ramp", "ID": 0, "MORE_INFO": "http://www.paddling.net/launches/showLaunch.html?lid=7558"}},{"geometry": {"type": "Point", "coordinates": [-75.18114177683448, 39.95159806436907]}, "type": "Feature", "id": 10, "properties": {"FISHING": "N", "NAME": "Walnut Street Landing", "DOCK": "N", "NOTES": "Roadside Parking", "FEES": "No Fee", "PARK": "Scuhylkill River Park", "WATER_BODY": "Schuylkill River", "COUNTY": "Philadelphia", "PARK_PROP": "Y", "STATE": "PA", "LOCATION": "Scuhylkill River Park", "PARKING": "N", "PHONE": "215-729-5281", "TYPE": "No Ramp", "ID": 0, "MORE_INFO": "http://www.phillyriverinfo.org/WICLibrary/Boating%20Website.pdf"}},{"geometry": {"type": "Point", "coordinates": [-75.20821782937843, 39.933488878911945]}, "type": "Feature", "id": 11, "properties": {"FISHING": "Y", "NAME": "Bartram's Garden", "DOCK": "Y", "NOTES": "Pedestrian and kayaks", "FEES": "No Fee", "PARK": "Bartram's Garden", "WATER_BODY": "Schuylkill River", "COUNTY": "Philadelphia", "PARK_PROP": "Y", "STATE": "PA", "LOCATION": "Bartram's Garden", "PARKING": "Y", "TYPE": "Paved Ramp", "ID": 0, "MORE_INFO": "http://www.bartramsgarden.org/"}},{"geometry": {"type": "Point", "coordinates": [-75.25392476208916, 40.04454142494471]}, "type": "Feature", "id": 12, "properties": {"FISHING": "Y", "NAME": "Flat Rock Park", "DOCK": "Y", "NOTES": "Canoe Club?", "FEES": "Fee", "PARK": "N", "WATER_BODY": "Schuylkill River", "COUNTY": "Montgomery", "PARK_PROP": "N", "STATE": "PA", "LOCATION": "Flat Rock Park", "PARKING": "Y", "TYPE": "Paved Ramp", "ID": 0, "MORE_INFO": "http://www.philacanoe.org/locations/schuylkill-river-flat-rock-park"}},{"geometry": {"type": "Point", "coordinates": [-75.20418558002908, 39.98062939699323]}, "type": "Feature", "id": 13, "properties": {"NAME": "Tugboat House", "DOCK": "Y", "NOTES": "Private, Historic", "FEES": "Undetermind", "PARK": "West Fairmount Park", "WATER_BODY": "Schuylkill River", "COUNTY": "Philadelphia", "PARK_PROP": "Y", "STATE": "PA", "LOCATION": "Belomt Landing, MLK Drive", "PARKING": "Y", "TYPE": "Undetermind", "ID": 0, "FISHING": "N"}},{"geometry": {"type": "Point", "coordinates": [-75.18718305920773, 39.969185480755336]}, "type": "Feature", "id": 14, "properties": {"FISHING": "N", "NAME": "Boat House Row", "DOCK": "Y", "NOTES": "Private", "FEES": "No Fee", "PARK": "East Fairmount Park", "WATER_BODY": "Schuylkill River", "COUNTY": "Philadelphia", "PARK_PROP": "Y", "STATE": "PA", "LOCATION": "East Fairmount Park", "PARKING": "Y", "TYPE": "No Ramp", "ID": 0, "MORE_INFO": "http://www.boathouserow.org/"}},{"geometry": {"type": "Point", "coordinates": [-75.18579837486813, 39.96895686920458]}, "type": "Feature", "id": 15, "properties": {"FISHING": "N", "NAME": "Lloyd Hall", "DOCK": "Y", "NOTES": "Private", "FEES": "No Fee", "PARK": "East Fairmount Park", "WATER_BODY": "Schuylkill River", "COUNTY": "Philadelphia", "PARK_PROP": "Y", "STATE": "PA", "LOCATION": "East Fairmount Park", "PARKING": "Y", "TYPE": "No Ramp", "ID": 0, "MORE_INFO": "http://www.phila.gov/findrec/RecCenterDetails.aspx?ID=927"}}]}